City_ID,City,Country,Lat,Lng,Max Temp,Humidity,Cloudiness,Wind Speed,Current Description
0,Ushuaia,AR,-54.8,-68.3,46.02,70,40,35.68,scattered clouds
1,Punta Arenas,CL,-53.15,-70.9167,46.42,76,75,24.16,broken clouds
2,Podyuga,RU,61.095,40.8647,27.99,77,100,5.97,overcast clouds
3,Saint-Philippe,RE,-21.3585,55.7679,75.22,81,23,6.96,few clouds
4,Yar-Sale,RU,66.8333,70.8333,15.08,85,100,4.83,overcast clouds
5,Jamestown,US,42.097,-79.2353,44.02,37,0,11.5,clear sky
6,Aksha,RU,50.2814,113.2867,30.2,67,99,16.11,overcast clouds
7,Bredasdorp,ZA,-34.5322,20.0403,58.08,93,16,3.51,few clouds
8,Anadyr,RU,64.75,177.4833,23.5,93,100,4.47,fog
9,Vaini,TO,-21.2,-175.2,77.16,73,20,10.36,few clouds
10,Nanortalik,GL,60.1432,-45.2371,39.51,80,100,1.72,overcast clouds
11,Sao Filipe,CV,14.8961,-24.4956,72.72,70,3,11.23,clear sky
12,Wagar,SD,16.1525,36.2032,90.75,31,28,15.88,scattered clouds
13,Ilebo,CD,-4.3167,20.5833,76.51,78,100,1.21,overcast clouds
14,Rikitea,PF,-23.1203,-134.9692,76.19,74,31,22.79,light rain
15,Ancud,CL,-41.8697,-73.8203,49.46,67,100,1.77,overcast clouds
16,Kapaa,US,22.0752,-159.319,78.78,84,75,12.66,broken clouds
17,Grindavik,IS,63.8424,-22.4338,52.27,66,40,13.8,scattered clouds
18,Kikwit,CD,-5.041,18.8162,73.09,85,13,1.61,few clouds
19,Fort Nelson,CA,58.8053,-122.7002,33.39,93,100,12.66,light snow
20,Tuktoyaktuk,CA,69.4541,-133.0374,6.8,85,100,12.66,light snow
21,Hilo,US,19.7297,-155.09,82.27,78,40,5.99,scattered clouds
22,Luderitz,NA,-26.6481,15.1594,62.35,67,0,7.18,clear sky
23,Pangnirtung,CA,66.1451,-65.7125,21.2,68,100,21.85,overcast clouds
24,Pokhara,NP,28.2333,83.9833,74.73,36,2,6.58,clear sky
25,Port Lincoln,AU,-34.7333,135.8667,62.26,88,100,9.51,overcast clouds
26,Vostok,RU,46.4856,135.8833,27.45,83,1,3.44,clear sky
27,Busselton,AU,-33.65,115.3333,57.33,74,51,6.51,broken clouds
28,Kaitangata,NZ,-46.2817,169.8464,43.65,95,13,3.49,few clouds
29,Zabol,AF,32.25,67.25,70.83,23,100,3.2,overcast clouds
30,Chunskiy,RU,56.0815,99.6342,37.51,99,100,0.36,overcast clouds
31,Dauphin,CA,51.1494,-100.0502,37.54,81,100,12.66,overcast clouds
32,Tasiilaq,GL,65.6145,-37.6368,39.36,83,7,6.85,clear sky
33,Kahului,US,20.8947,-156.47,78.82,67,20,13.0,few clouds
34,Qaanaaq,GL,77.484,-69.3632,30.09,75,100,4.05,overcast clouds
35,Atuona,PF,-9.8,-139.0333,78.64,78,68,21.16,light rain
36,Dingle,PH,10.9995,122.6711,76.68,91,100,6.91,overcast clouds
37,Severo-Kurilsk,RU,50.6789,156.125,32.68,94,100,19.69,light snow
38,Bambous Virieux,MU,-20.3428,57.7575,75.22,94,20,4.61,few clouds
39,Puerto Ayora,EC,-0.7393,-90.3518,80.56,75,18,9.82,few clouds
40,Cape Town,ZA,-33.9258,18.4232,60.91,86,0,9.22,clear sky
41,Nola,IT,40.922,14.5329,66.61,48,1,5.01,clear sky
42,Pevek,RU,69.7008,170.3133,18.39,98,100,1.48,overcast clouds
43,Mahebourg,MU,-20.4081,57.7,75.25,94,20,4.61,few clouds
44,Kimbe,PG,-5.5502,150.1429,75.42,93,54,2.55,broken clouds
45,Khatanga,RU,71.9667,102.5,9.34,95,94,7.11,overcast clouds
46,Bandar-E Lengeh,IR,26.5579,54.8807,84.31,42,99,6.91,overcast clouds
47,Cap Malheureux,MU,-19.9842,57.6142,75.47,78,0,1.99,clear sky
48,Maragogi,BR,-9.0122,-35.2225,81.05,77,90,10.74,overcast clouds
49,Dikson,RU,73.5069,80.5464,12.18,90,89,21.61,overcast clouds
50,Port-Gentil,GA,-0.7193,8.7815,82.36,83,40,6.91,scattered clouds
51,Sioux Falls,US,43.55,-96.7003,55.58,57,100,21.85,overcast clouds
52,Mataura,NZ,-46.1927,168.8643,40.68,99,16,1.59,few clouds
53,Avarua,CK,-21.2078,-159.775,77.05,88,40,4.61,light rain
54,Georgetown,MY,5.4112,100.3354,82.35,83,40,3.44,thunderstorm
55,Hermanus,ZA,-34.4187,19.2345,60.8,83,100,8.46,overcast clouds
56,San Patricio,US,28.017,-97.5169,87.19,53,19,18.05,few clouds
57,Sitio Novo Do Tocantins,BR,-5.5183,-47.4611,91.33,58,40,9.22,scattered clouds
58,Port Elizabeth,ZA,-33.918,25.5701,60.31,76,0,3.44,clear sky
59,Nata,PA,8.3333,-80.5167,84.07,69,99,10.04,overcast clouds
60,Bluff,NZ,-46.6,168.3333,47.26,88,55,6.08,broken clouds
61,Arlit,NE,18.7369,7.3853,85.8,5,0,9.71,clear sky
62,Tupaciguara,BR,-18.5922,-48.705,83.95,31,0,4.25,clear sky
63,Barrow,US,71.2906,-156.7887,6.82,78,100,17.27,overcast clouds
64,Djougou,BJ,9.7085,1.666,83.19,50,100,4.61,overcast clouds
65,Madawaska,US,47.3561,-68.3288,34.0,83,100,26.46,snow
66,Saskylakh,RU,71.9167,114.0833,24.3,94,100,8.43,overcast clouds
67,Hasaki,JP,35.7333,140.8333,54.0,73,100,10.6,overcast clouds
68,Tazovskiy,RU,67.4667,78.7,14.45,93,100,6.33,overcast clouds
69,Upernavik,GL,72.7868,-56.1549,20.64,84,25,4.16,scattered clouds
70,Marshfield,US,44.6689,-90.1718,48.18,46,0,20.71,clear sky
71,Durban,ZA,-29.8579,31.0292,69.03,90,0,1.99,clear sky
72,Havoysund,NO,70.9963,24.6622,23.23,62,100,21.47,light snow
73,Casper,US,42.8666,-106.3131,63.72,53,0,7.0,clear sky
74,Iqaluit,CA,63.7506,-68.5145,20.93,67,75,18.41,broken clouds
75,Chokurdakh,RU,70.6333,147.9167,-10.34,100,100,4.05,overcast clouds
76,Butaritari,KI,3.0707,172.7902,80.96,81,99,17.0,overcast clouds
77,Makakilo City,US,21.3469,-158.0858,77.2,66,0,12.66,clear sky
78,Ambilobe,MG,-13.2,49.05,73.26,96,50,2.82,scattered clouds
79,Dong Xoai,VN,11.5333,106.9167,77.86,89,100,0.27,overcast clouds
80,Skaudvile,LT,55.4167,22.6167,38.3,62,18,5.57,few clouds
81,Provideniya,RU,64.3833,-173.3,28.45,81,61,15.1,broken clouds
82,Kismayo,SO,-0.3582,42.5454,82.65,78,100,11.25,overcast clouds
83,Ostrovnoy,RU,68.0531,39.5131,23.67,84,100,17.2,overcast clouds
84,The Valley,AI,18.217,-63.0578,84.06,54,40,13.8,scattered clouds
85,Bengkulu,ID,-3.8004,102.2655,77.32,88,100,4.0,overcast clouds
86,Kashan,IR,33.9831,51.4364,77.43,25,100,1.05,overcast clouds
87,Sirjan,IR,29.452,55.6814,66.58,21,1,4.72,clear sky
88,Altay,CN,47.8667,88.1167,42.8,37,0,8.52,clear sky
89,Hobart,AU,-42.8794,147.3294,58.86,92,4,6.91,clear sky
90,Goderich,CA,43.7501,-81.7165,41.32,48,0,13.8,clear sky
91,Aspindza,GE,41.5739,43.2483,52.95,92,100,3.44,overcast clouds
92,Bata,GQ,1.8639,9.7658,79.54,82,22,5.95,light rain
93,Kieta,PG,-6.2167,155.6333,79.05,80,91,3.71,overcast clouds
94,Longyearbyen,SJ,78.2186,15.6401,10.24,52,40,20.71,scattered clouds
95,Kruisfontein,ZA,-34.0033,24.7314,57.88,67,34,4.34,scattered clouds
96,San Pedro,PH,14.35,121.0167,83.43,78,20,3.44,few clouds
97,Saint George,US,37.1041,-113.5841,82.63,14,0,5.99,clear sky
98,North Bend,US,43.4065,-124.2243,55.24,79,100,8.05,overcast clouds
99,Egvekinot,RU,66.3167,-179.1667,18.99,70,12,7.67,few clouds
100,Musoma,TZ,-1.5,33.8,71.4,78,100,6.11,moderate rain
101,Carnarvon,AU,-24.8667,113.6333,62.67,72,0,11.5,clear sky
102,Souillac,MU,-20.5167,57.5167,73.78,94,20,4.61,few clouds
103,Vila Franca Do Campo,PT,37.7167,-25.4333,65.19,94,100,29.77,moderate rain
104,Albany,US,42.6001,-73.9662,53.17,24,6,1.99,clear sky
105,Hamilton,US,39.1834,-84.5333,63.61,47,20,9.22,few clouds
106,Castro,BR,-24.7911,-50.0119,69.91,81,98,5.48,overcast clouds
107,Lima,PE,-12.0432,-77.0282,62.85,82,100,8.05,overcast clouds
108,Safaga,EG,26.7292,33.9365,78.85,44,0,5.12,clear sky
109,Laredo,US,27.5064,-99.5075,84.49,54,100,19.57,overcast clouds
110,Lebu,CL,-37.6167,-73.65,54.86,64,8,13.15,clear sky
111,Aksarka,RU,66.5606,67.7975,13.73,92,100,3.78,overcast clouds
112,Airai,TL,-8.9266,125.4092,57.85,90,87,2.13,overcast clouds
113,Senanga,ZM,-16.1167,23.2667,69.98,55,34,6.96,scattered clouds
114,Narsaq,GL,60.9167,-46.05,53.82,63,100,2.84,overcast clouds
115,Ponta Do Sol,PT,32.6667,-17.1,66.7,79,83,4.03,broken clouds
116,Markova,UA,48.6758,24.4138,44.85,95,100,0.85,overcast clouds
117,Laguna,US,38.421,-121.4238,65.14,42,0,9.22,clear sky
118,Svetlyy,RU,54.675,20.1347,44.65,63,14,2.91,few clouds
119,Uusikaupunki,FI,60.8004,21.4084,35.67,87,5,9.91,clear sky
120,Northam,GB,51.0333,-4.2167,56.25,67,99,7.56,overcast clouds
121,Puerto Montt,CL,-41.4698,-72.9447,50.83,66,75,5.75,broken clouds
122,Gamba,GA,-2.65,10.0,78.12,86,100,2.66,overcast clouds
123,Esmeraldas,BR,-19.7625,-44.3139,87.91,33,2,1.03,clear sky
124,Alakurtti,RU,66.9672,30.3491,23.63,76,66,7.49,broken clouds
125,Okhotsk,RU,59.3833,143.3,25.93,76,100,16.24,overcast clouds
126,Hualmay,PE,-11.0964,-77.6139,70.92,78,60,8.55,broken clouds
127,Celestun,MX,20.8667,-90.4,80.82,68,41,13.42,scattered clouds
128,Shahrud,IR,36.4182,54.9763,65.75,54,96,6.58,overcast clouds
129,Gazli,UZ,40.1333,63.45,76.87,25,45,14.58,scattered clouds
130,Omboue,GA,-1.5746,9.2618,78.85,85,100,4.59,overcast clouds
131,Tiksi,RU,71.6872,128.8694,-2.65,99,33,5.91,scattered clouds
132,Waipawa,NZ,-41.4122,175.5153,49.57,78,91,2.17,overcast clouds
133,Mar Del Plata,AR,-38.0023,-57.5575,55.42,77,75,18.01,broken clouds
134,Semey,KZ,50.4111,80.2275,57.25,37,2,8.28,clear sky
135,Salalah,OM,17.0151,54.0924,84.29,79,20,4.61,few clouds
136,Kodiak,US,57.79,-152.4072,42.31,70,100,10.36,light rain
137,San Cristobal,VE,7.7669,-72.225,73.58,57,100,3.85,overcast clouds
138,Victoria,HK,22.2855,114.1577,82.18,86,9,10.0,clear sky
139,Ordu,TR,40.9086,37.6845,39.7,94,57,2.46,broken clouds
140,East London,ZA,-33.0153,27.9116,68.94,52,0,6.91,clear sky
141,Lodwar,KE,3.1191,35.5973,77.92,70,100,2.21,overcast clouds
142,Mountain Home,US,43.133,-115.6912,53.08,50,40,10.36,scattered clouds
143,Bandeirantes,BR,-23.11,-50.3675,85.55,48,1,4.88,clear sky
144,Nanakuli,US,21.3906,-158.1547,79.43,64,0,4.61,clear sky
145,Amapa,BR,1.0,-52.0,79.18,95,100,3.62,heavy intensity rain
146,Morros,BR,-9.4467,-46.3003,84.54,50,100,5.37,overcast clouds
147,New Norfolk,AU,-42.7826,147.0587,58.5,85,1,2.59,clear sky
148,Vardo,NO,70.3705,31.1107,19.38,93,100,23.02,overcast clouds
149,Mbamba,NG,9.9833,13.1,85.78,43,47,1.28,scattered clouds
150,Yellowknife,CA,62.456,-114.3525,37.92,52,75,18.41,broken clouds
151,Pacific Grove,US,36.6177,-121.9166,62.02,70,40,12.66,scattered clouds
152,Saldanha,ZA,-33.0117,17.9442,57.25,91,0,13.42,clear sky
153,Hulan,CN,45.9833,126.6,35.71,38,0,6.53,clear sky
154,Kaseda,JP,31.4167,130.3167,69.24,98,100,8.66,moderate rain
155,Tual,ID,-5.6667,132.75,84.45,71,100,13.15,overcast clouds
156,Erenhot,CN,43.6475,111.9767,46.67,41,100,16.69,overcast clouds
157,Nikolskoye,RU,59.7035,30.7861,36.72,62,100,3.67,overcast clouds
158,Sao Joao Da Barra,BR,-21.6403,-41.0511,86.09,77,8,13.27,clear sky
159,Dhidhdhoo,MV,6.8833,73.1,84.92,71,24,1.7,few clouds
160,Olafsvik,IS,64.8945,-23.7142,45.46,79,59,8.5,broken clouds
161,Kenai,US,60.5544,-151.2583,49.03,80,0,9.22,clear sky
162,Adrar,MR,20.5022,-10.0711,81.46,9,0,5.26,clear sky
163,Sault Sainte Marie,CA,46.5168,-84.3333,48.49,22,0,4.61,clear sky
164,Yarada,IN,17.65,83.2667,84.52,79,40,5.75,scattered clouds
165,Saint Anthony,US,45.0205,-93.218,50.22,49,100,14.97,overcast clouds
166,Todos Santos,MX,23.45,-110.2167,75.79,42,4,10.76,clear sky
167,Nome,US,64.5011,-165.4064,37.17,93,75,10.36,broken clouds
168,Cherskiy,RU,68.75,161.3,15.87,96,99,9.04,overcast clouds
169,Boende,CD,-0.2167,20.8667,73.08,95,100,3.02,light rain
170,Camacha,PT,33.0833,-16.3333,60.22,72,20,12.66,few clouds
171,Brae,GB,60.3964,-1.353,46.02,78,93,5.35,overcast clouds
172,Sisimiut,GL,66.9395,-53.6735,25.25,91,100,4.25,overcast clouds
173,Lorengau,PG,-2.0226,147.2712,80.56,75,100,0.47,overcast clouds
174,Savannah Bight,HN,16.45,-85.85,80.37,76,44,12.73,scattered clouds
175,Constitucion,CL,-35.3333,-72.4167,59.43,53,0,15.41,clear sky
176,Hithadhoo,MV,-0.6,73.0833,85.19,69,100,6.78,overcast clouds
177,Port Hardy,CA,50.6996,-127.4199,44.78,81,40,4.61,scattered clouds
178,Kavaratti,IN,10.5669,72.642,84.92,75,100,4.61,overcast clouds
179,Leningradskiy,RU,69.3833,178.4167,15.55,94,100,4.18,overcast clouds
180,Chapais,CA,49.7834,-74.8492,35.38,52,6,12.93,clear sky
181,Hit,IQ,33.6416,42.8251,77.58,42,100,22.7,overcast clouds
182,Ribeira Grande,PT,38.5167,-28.7,63.0,94,75,16.11,light rain
183,Bandarban,BD,22.1965,92.2262,74.52,96,17,1.79,few clouds
184,Port Alfred,ZA,-33.5906,26.891,66.11,61,2,9.53,clear sky
185,Chumikan,RU,54.7183,135.315,26.2,73,98,9.31,overcast clouds
186,Clyde River,CA,70.4692,-68.5914,10.63,72,75,17.27,broken clouds
187,Noumea,NC,-22.2763,166.4572,75.99,99,100,11.45,overcast clouds
188,Flinders,AU,-34.5833,150.8552,63.68,92,1,5.99,clear sky
189,Suoyarvi,RU,62.0833,32.35,28.85,73,100,8.03,overcast clouds
190,San Andres,CO,12.5847,-81.7006,84.22,70,75,12.66,broken clouds
191,Seoul,KR,37.5683,126.9778,53.2,91,100,5.75,heavy intensity rain
192,Paita,PE,-5.0892,-81.1144,74.32,72,54,12.91,broken clouds
193,Atasu,KZ,48.6814,71.6433,58.8,38,100,7.96,overcast clouds
194,Faanui,PF,-16.4833,-151.75,81.72,70,3,23.91,clear sky
195,Ardmore,US,34.1743,-97.1436,78.31,66,100,18.41,overcast clouds
196,Itoman,JP,26.1247,127.6694,79.57,94,75,13.8,broken clouds
197,Namatanai,PG,-3.6667,152.4333,78.82,79,100,5.79,overcast clouds
198,Tocopilla,CL,-22.092,-70.1979,68.56,70,100,7.99,overcast clouds
199,Yumen,CN,40.2833,97.2,48.99,22,100,4.7,overcast clouds
200,Newport,GB,51.5877,-2.9984,54.54,66,100,9.35,overcast clouds
201,Guerrero Negro,MX,27.9769,-114.0611,66.18,57,1,18.32,clear sky
202,Buarcos,PT,40.166,-8.8768,64.74,80,55,15.68,broken clouds
203,Saint-Denis,FR,48.9167,2.3333,67.59,42,0,8.05,clear sky
204,Mapiripan,CO,2.8892,-72.1256,84.9,71,90,3.36,overcast clouds
205,Whitehorse,CA,60.7161,-135.0538,42.03,67,75,10.36,broken clouds
206,Sur,OM,22.5667,59.5289,87.91,54,82,3.91,broken clouds
207,Ayan,RU,56.45,138.1667,30.69,71,100,11.99,overcast clouds
208,Caravelas,BR,-17.7125,-39.2481,81.43,64,0,7.18,clear sky
209,Mascote,BR,-15.5631,-39.3025,83.71,61,14,6.29,few clouds
210,Vestmannaeyjar,IS,63.4427,-20.2734,49.19,87,20,9.22,few clouds
211,Atar,MR,20.5169,-13.0499,89.38,8,0,10.04,clear sky
212,Shizunai,JP,42.3339,142.3669,41.11,51,83,3.44,broken clouds
213,Saint Paul,US,44.9444,-93.0933,50.85,59,100,12.66,overcast clouds
214,Mackay,AU,-21.15,149.2,73.69,94,40,9.22,scattered clouds
215,Lagoa,PT,39.05,-27.9833,60.24,96,100,19.66,heavy intensity rain
216,Ambovombe,MG,-25.1667,46.0833,67.57,73,67,14.63,broken clouds
217,Porto Santo,PT,33.072,-16.3415,62.98,72,20,12.66,few clouds
218,Ratnagiri,IN,16.9833,73.3,82.26,81,2,3.65,clear sky
219,Kasongo-Lunda,CD,-6.4667,16.8167,70.68,96,26,0.83,light rain
220,Roald,NO,62.5833,6.1333,43.32,70,75,4.61,broken clouds
221,Puerto Cabezas,NI,14.0351,-83.3888,85.96,74,40,11.5,scattered clouds
222,Tuatapere,NZ,-46.1333,167.6833,44.46,94,31,3.69,scattered clouds
223,Polovinnoye,RU,54.7914,65.9864,64.89,40,92,18.48,overcast clouds
224,Hokitika,NZ,-42.7167,170.9667,51.96,86,0,4.72,clear sky
225,Miri,MY,4.4148,114.0089,77.14,100,40,1.14,scattered clouds
226,Rozivka,UA,46.9385,35.7724,61.0,52,100,7.7,overcast clouds
227,Elizabeth City,US,36.2946,-76.2511,64.02,38,0,12.66,clear sky
228,Thompson,CA,55.7435,-97.8558,44.76,45,75,12.66,broken clouds
229,Lysva,RU,58.1086,57.8053,32.27,87,95,8.9,overcast clouds
230,Pecos,US,31.4229,-103.4932,91.49,7,0,9.22,clear sky
231,Aykino,RU,62.2248,49.9922,21.47,87,5,3.42,clear sky
232,Morehead,US,37.2711,-87.1764,75.85,31,0,6.91,clear sky
233,Katsuura,JP,35.1333,140.3,59.36,83,100,9.69,overcast clouds
234,Geraldton,AU,-28.7667,114.6,54.01,94,0,5.75,clear sky
235,San Carlos De Bariloche,AR,-41.1456,-71.3082,38.95,56,40,8.05,scattered clouds
236,Klaksvik,FO,62.2266,-6.589,45.52,78,13,5.23,few clouds
237,Shieli,KZ,44.1667,66.75,71.29,20,100,10.6,overcast clouds
238,Roma,US,43.2128,-75.4557,48.96,34,0,23.0,clear sky
239,Walvis Bay,NA,-22.9575,14.5053,85.15,23,0,13.8,clear sky
240,Resen,MK,41.0889,21.0122,55.04,90,43,9.08,light rain
241,Koutsouras,GR,35.0339,25.9469,65.32,64,0,9.46,clear sky
242,Arraial Do Cabo,BR,-22.9661,-42.0278,87.76,65,0,20.71,clear sky
243,Ust-Ishim,RU,57.6935,71.1665,55.53,85,100,5.32,overcast clouds
244,Kyaikto,MM,17.3,97.0167,83.84,77,100,6.22,overcast clouds
245,Marzuq,YE,14.4,46.4667,72.88,56,14,4.61,few clouds
246,Bereda,ES,43.2686,-7.5406,58.41,85,0,5.03,clear sky
247,Cabo San Lucas,MX,22.8909,-109.9124,88.11,25,0,5.75,clear sky
248,Eyl,SO,7.9803,49.8164,82.89,72,6,10.27,clear sky
249,Bethel,US,41.3712,-73.414,55.49,30,0,17.27,clear sky
250,Gao,ML,16.6362,1.637,89.4,7,66,9.73,broken clouds
251,Sao Gabriel Da Cachoeira,BR,-0.1303,-67.0892,76.8,100,75,0.0,moderate rain
252,Vrises,GR,35.492,23.8899,71.19,51,3,6.46,clear sky
253,Gerash,IR,27.6652,54.1371,80.74,28,36,5.41,scattered clouds
254,Goksun,TR,38.021,36.4973,56.3,40,52,2.66,broken clouds
255,Xining,CN,36.6167,101.7667,47.41,53,100,10.2,overcast clouds
256,Half Moon Bay,US,37.4636,-122.4286,63.86,63,0,23.02,clear sky
257,Aliwal North,ZA,-30.6937,26.7114,56.52,59,0,5.37,clear sky
258,Phan Thiet,VN,10.9333,108.1,80.29,88,100,3.06,overcast clouds
259,Chaoyang,CN,41.5703,120.4586,46.4,51,0,4.68,clear sky
260,Naron,ES,43.5167,-8.1528,61.56,84,0,9.53,clear sky
261,Loa Janan,ID,-0.583,117.095,73.6,98,92,1.77,overcast clouds
262,Jacqueville,CI,5.2052,-4.4146,80.49,77,100,2.57,overcast clouds
263,Charleston,US,32.7766,-79.9309,79.02,36,0,12.66,clear sky
264,Norman Wells,CA,65.282,-126.8329,32.04,69,100,3.44,overcast clouds
265,Khalkhal,IR,37.6189,48.5258,49.73,84,31,2.98,scattered clouds
266,Euclid,US,41.5931,-81.5268,53.42,50,40,11.5,scattered clouds
267,Lasa,IT,46.6166,10.7002,58.08,73,3,5.66,clear sky
268,Cidreira,BR,-30.1811,-50.2056,66.11,93,100,9.71,moderate rain
269,Borogontsy,RU,62.6683,131.1683,11.39,99,87,3.58,overcast clouds
270,Mundo Nuevo,MX,18.7,-95.5,82.0,66,6,10.58,clear sky
271,Torbay,CA,47.6666,-52.7314,49.87,84,75,9.22,broken clouds
272,Hare Bay,CA,48.8499,-54.0148,51.19,64,100,9.98,overcast clouds
273,Rabo De Peixe,PT,37.8,-25.5833,63.28,85,75,23.02,light rain
274,Les Cayes,HT,18.2,-73.75,79.09,72,74,9.24,broken clouds
275,Mugan,CN,35.9404,101.3842,48.6,52,100,3.85,light rain
276,Nouadhibou,MR,20.931,-17.0347,67.98,73,0,20.71,clear sky
277,Hearst,CA,49.6835,-83.6665,48.45,46,10,4.61,clear sky
278,Santiago,CL,-33.4569,-70.6483,73.29,46,0,4.61,haze
279,Komsomolskiy,UZ,40.4272,71.7189,65.12,63,100,4.61,overcast clouds
280,Ranong,TH,9.9658,98.6348,80.22,85,91,0.94,overcast clouds
281,Astana,KZ,51.1801,71.446,51.75,58,0,2.24,clear sky
282,Vila Velha,BR,-20.3297,-40.2925,85.95,73,20,12.66,few clouds
283,San Ignacio,BZ,17.1561,-89.0714,82.54,74,75,0.0,broken clouds
284,Gambela,ET,8.25,34.5833,74.88,85,100,0.76,overcast clouds
285,College,US,64.8569,-147.8028,48.09,48,84,1.01,broken clouds
286,Lompoc,US,34.6391,-120.4579,69.01,61,0,17.0,clear sky
287,Beringovskiy,RU,63.05,179.3167,19.06,97,85,7.25,overcast clouds
288,Buchanan,LR,5.8808,-10.0467,81.81,79,62,8.21,light rain
289,Ransang,PH,8.9603,117.5828,78.04,88,100,4.59,overcast clouds
290,Tondi,IN,9.7333,79.0167,86.29,72,100,12.26,overcast clouds
291,Dasoguz,TM,41.8363,59.9666,69.75,32,0,6.91,clear sky
292,Shubarshi,KZ,48.5872,57.1869,59.56,35,2,7.61,clear sky
293,Lufkin,US,31.3382,-94.7291,82.06,43,0,8.05,clear sky
294,Makaha,US,21.4694,-158.2175,78.57,64,0,4.61,clear sky
295,Tiarei,PF,-17.5333,-149.3333,82.42,74,9,23.73,light rain
296,Barhi,IN,23.9,80.8,91.02,13,25,3.67,scattered clouds
297,Sambava,MG,-14.2667,50.1667,76.82,82,22,16.69,few clouds
298,Khani,GE,41.9563,42.9566,47.77,95,100,3.29,overcast clouds
299,Sorong,ID,-0.8833,131.25,77.59,84,100,4.43,overcast clouds
300,Tchollire,CM,8.4022,14.1698,83.46,52,50,1.36,scattered clouds
301,Yulara,AU,-25.2406,130.9889,75.04,35,100,6.91,overcast clouds
302,Grand Gaube,MU,-20.0064,57.6608,74.37,78,0,3.0,clear sky
303,Chuy,UY,-33.6971,-53.4616,66.0,54,0,9.91,clear sky
304,Paredon,MX,16.0333,-93.8667,90.03,51,8,11.01,clear sky
305,Akcaabat,TR,41.0212,39.5715,55.27,94,40,2.3,scattered clouds
306,Manta,EC,-0.95,-80.7333,82.18,69,100,9.22,overcast clouds
307,Yatou,CN,37.15,122.3833,46.26,89,100,8.63,overcast clouds
308,Novikovo,RU,51.1537,37.8879,47.98,71,96,2.33,overcast clouds
309,Kavieng,PG,-2.5744,150.7967,82.31,75,100,7.87,overcast clouds
310,Sung Noen,TH,14.8992,101.8207,82.54,84,100,3.24,overcast clouds
311,Talas,TR,38.6908,35.5538,59.67,39,75,0.0,broken clouds
312,Rocha,UY,-34.4833,-54.3333,63.3,54,0,10.89,clear sky
313,Pisco,PE,-13.7,-76.2167,71.65,68,0,8.05,clear sky
314,Bac Lieu,VN,9.285,105.7244,83.35,73,100,6.22,overcast clouds
315,Kuybysheve,UA,47.358,36.6491,58.51,57,100,7.29,overcast clouds
316,Yongzhou,CN,26.4559,111.5988,60.15,87,100,8.86,overcast clouds
317,Fortuna,US,40.5982,-124.1573,57.92,74,40,4.0,scattered clouds
318,Mount Gambier,AU,-37.8333,140.7667,66.11,72,86,10.36,overcast clouds
319,Baykit,RU,61.67,96.37,38.19,99,100,4.52,overcast clouds
320,Luanda,AO,-8.8368,13.2343,76.39,91,100,10.13,moderate rain
321,Henties Bay,NA,-22.116,14.2845,65.53,65,2,1.72,clear sky
322,Majene,ID,-3.5403,118.9707,79.25,83,100,3.62,overcast clouds
323,Kaduna,NG,10.5222,7.4383,85.19,41,75,4.36,broken clouds
324,Asfi,MA,32.2994,-9.2372,62.49,72,8,24.27,clear sky
325,La Macarena,CO,2.1837,-73.7849,88.63,55,100,2.57,overcast clouds
326,Lavrentiya,RU,65.5833,-171.0,29.16,87,99,11.52,overcast clouds
327,Groningen,NL,53.25,6.75,48.09,73,59,8.05,broken clouds
328,Canon City,US,38.441,-105.2424,79.39,11,0,5.01,clear sky
329,La Seyne-Sur-Mer,FR,43.0982,5.8847,69.89,60,8,1.12,clear sky
330,Gravelbourg,CA,49.8834,-106.5512,57.47,29,5,11.16,clear sky
331,Bathsheba,BB,13.2167,-59.5167,84.81,74,20,14.97,few clouds
332,Lata,PT,40.1629,-8.3327,61.81,67,46,4.61,scattered clouds
333,Rio Gallegos,AR,-51.6226,-69.2181,44.65,57,75,28.77,broken clouds
334,Deputatskiy,RU,69.3,139.9,-4.67,100,94,3.76,overcast clouds
335,Plouzane,FR,48.3833,-4.6167,59.05,77,0,11.5,clear sky
336,Tupancireta,BR,-29.0806,-53.8358,63.64,90,66,9.66,moderate rain
337,Boshnyakovo,RU,49.6333,142.1667,27.64,82,94,11.05,overcast clouds
338,San-Pedro,CI,4.7485,-6.6363,80.91,77,58,5.55,broken clouds
339,Karratha,AU,-20.7377,116.8463,73.06,79,100,10.76,light rain
340,Ahipara,NZ,-35.1667,173.1667,56.53,88,9,7.25,clear sky
341,Panzhihua,CN,26.5851,101.7128,68.23,58,65,4.41,broken clouds
342,Hakui,JP,36.8833,136.7833,52.21,70,100,12.73,overcast clouds
343,Puerto Leguizamo,CO,-0.1934,-74.7819,81.73,76,99,3.53,overcast clouds
344,Zhigansk,RU,66.7697,123.3711,7.39,98,42,7.16,scattered clouds
345,Seminole,US,28.7086,-81.2081,83.41,67,75,14.97,broken clouds
346,Santo Domingo,DO,18.5001,-69.9886,85.64,60,40,9.22,scattered clouds
347,Sorland,NO,67.667,12.6934,31.86,57,100,16.78,overcast clouds
348,Alpuyeca,MX,18.7333,-99.2667,90.39,32,20,8.05,few clouds
349,Port Blair,IN,11.6667,92.75,80.64,94,40,0.0,mist
350,Norsup,VU,-16.0667,167.3833,78.94,85,100,8.57,overcast clouds
351,Hami,CN,42.8,93.45,58.42,15,100,15.12,overcast clouds
352,Kuching,MY,1.55,110.3333,75.42,100,40,2.3,scattered clouds
353,Shahpura,IN,27.3833,75.9667,88.38,15,17,5.64,few clouds
354,Namwala,ZM,-15.7504,26.4384,64.9,73,64,5.44,broken clouds
355,Batagay-Alyta,RU,67.8006,130.4114,-4.83,99,79,6.13,broken clouds
356,Wajima,JP,37.4,136.9,52.45,71,100,17.11,overcast clouds
357,Chauk,MM,20.8833,94.8167,90.37,46,22,6.49,few clouds
358,Coquimbo,CL,-29.9533,-71.3436,65.93,59,0,16.11,clear sky
359,Mogocha,RU,53.7333,119.7667,29.53,96,100,8.99,snow
360,Labuan,MY,5.2767,115.2417,79.16,94,20,0.0,few clouds
361,Manyana,BW,-23.4,21.7167,69.37,47,87,10.6,overcast clouds
362,Dabakala,CI,8.3667,-4.4333,80.76,68,99,2.73,overcast clouds
363,Temerloh,MY,3.4483,102.4176,75.22,97,14,0.43,moderate rain
364,Monforte De Lemos,ES,42.5216,-7.5142,57.54,80,3,3.51,clear sky
365,Russellville,US,35.2784,-93.1338,74.98,39,40,3.44,scattered clouds
366,Krasnoselkup,RU,65.7,82.4667,26.04,96,100,16.58,snow
367,Banda Aceh,ID,5.5577,95.3222,80.51,83,86,5.79,overcast clouds
368,Dalbandin,PK,28.8947,64.4101,85.14,18,27,2.77,scattered clouds
369,Raudeberg,NO,61.9875,5.1352,42.87,76,99,2.93,overcast clouds
370,Coihaique,CL,-45.5752,-72.0662,46.35,46,40,9.22,scattered clouds
371,Axim,GH,4.8699,-2.2405,78.76,83,100,4.12,overcast clouds
372,Palmer,US,42.1584,-72.3287,53.85,32,75,27.63,broken clouds
373,Araguacu,BR,-12.9306,-49.8264,88.95,44,5,2.39,clear sky
374,Nemuro,JP,43.3236,145.575,38.75,72,100,15.26,overcast clouds
375,Kuusamo,FI,65.9667,29.1833,28.44,43,0,8.05,clear sky
376,Meulaboh,ID,4.1363,96.1285,77.68,90,26,4.16,scattered clouds
377,Oruro,BO,-17.9833,-67.15,63.09,24,40,6.91,scattered clouds
378,Padang,ID,-0.9492,100.3543,77.9,87,100,2.62,moderate rain
379,Codrington,AU,-38.2667,141.9667,66.33,65,48,16.2,scattered clouds
380,Nerchinskiy Zavod,RU,51.3088,119.61,31.06,90,71,2.39,broken clouds
381,Jumla,NP,29.2747,82.1838,51.93,50,6,4.03,clear sky
382,Tabora,TZ,-5.0167,32.8,65.12,90,11,6.73,few clouds
383,Vanavara,RU,60.34,102.2797,33.58,96,77,6.29,broken clouds
384,Charkhi Dadri,IN,28.6,76.2667,91.29,13,11,7.72,few clouds
385,Sabha,LY,27.0377,14.4283,83.61,10,0,9.48,clear sky
386,Urumqi,CN,43.801,87.6005,52.75,44,0,6.71,clear sky
387,Harper,LR,4.375,-7.7169,80.87,82,81,6.22,broken clouds
388,Sept-Iles,CA,50.2001,-66.3821,39.06,63,100,11.5,overcast clouds
389,Gogrial,SS,8.5332,28.1004,84.42,54,100,5.37,overcast clouds
390,Impfondo,CG,1.6381,18.0667,71.73,96,99,3.18,light rain
391,Los Algarrobos,PA,8.5,-82.4333,82.81,74,75,4.61,broken clouds
392,Mahajanga,MG,-15.7167,46.3167,80.11,75,76,1.72,light rain
393,Zhuhai,CN,22.2769,113.5678,82.85,94,20,8.05,few clouds
394,Mopipi,BW,-21.1833,24.8833,68.72,40,0,6.35,clear sky
395,Fare,PF,-16.7,-151.0167,82.11,68,1,23.71,clear sky
396,Gat,IL,31.61,34.7642,71.4,63,0,3.76,clear sky
397,Amahai,ID,-3.3333,128.9167,77.27,87,100,5.23,overcast clouds
398,Broome,US,42.2506,-75.833,49.05,27,0,25.32,clear sky
399,Unity,CA,52.4501,-109.1682,49.24,42,84,8.12,broken clouds
400,Alyangula,AU,-13.8483,136.4192,73.27,100,100,1.14,overcast clouds
401,Akureyri,IS,65.6835,-18.0878,49.93,40,75,8.05,broken clouds
402,Eidsvoll,NO,60.3305,11.2616,50.77,39,0,6.91,clear sky
403,Pincher Creek,CA,49.4833,-113.952,48.65,25,0,14.97,clear sky
404,Kirakira,SB,-10.4544,161.9205,79.72,82,100,3.98,overcast clouds
405,Srednekolymsk,RU,67.45,153.6833,5.61,97,100,5.35,overcast clouds
406,Tamalin,MX,21.35,-97.8,89.91,42,54,12.06,broken clouds
407,Haines Junction,CA,60.7522,-137.5108,37.35,93,100,2.3,overcast clouds
408,Sofia,BG,42.6975,23.3242,56.05,70,100,4.61,overcast clouds
409,Aquiraz,BR,-3.9014,-38.3911,87.89,76,96,6.67,overcast clouds
410,Jishui,CN,33.7333,115.4,45.3,97,17,4.25,few clouds
411,Belyy Yar,RU,53.6039,91.3903,42.69,49,0,2.24,clear sky
412,Ucluelet,CA,48.9329,-125.5528,50.09,77,100,1.01,overcast clouds
413,Chegdomyn,RU,51.1167,133.0167,27.25,85,100,2.75,overcast clouds
414,Letlhakane,BW,-21.4167,25.5833,65.55,43,0,8.25,clear sky
415,Abu Dhabi,AE,24.4667,54.3667,86.11,69,0,9.22,clear sky
416,Ilulissat,GL,69.2167,-51.1,26.62,93,100,4.61,overcast clouds
417,Mangaratiba,BR,-22.9597,-44.0406,90.46,62,0,1.43,clear sky
418,Bilibino,RU,68.0546,166.4372,21.94,93,100,2.77,overcast clouds
419,Portland,US,45.5234,-122.6762,54.01,73,100,3.44,overcast clouds
420,Maltahohe,NA,-24.8333,16.9833,68.43,32,0,11.99,clear sky
421,Honiara,SB,-9.4333,159.95,77.11,87,83,3.04,broken clouds
422,Berlevag,NO,70.8578,29.0864,22.95,80,75,31.07,broken clouds
423,Constantine,DZ,36.365,6.6147,56.61,88,75,8.05,light rain
424,Rehoboth,NA,-23.3167,17.0833,69.19,38,39,5.73,scattered clouds
425,Male,MV,4.1748,73.5089,84.15,84,40,3.44,scattered clouds
426,Bartica,GY,6.4,-58.6167,79.12,74,45,4.27,scattered clouds
427,Kizema,RU,61.113,44.8302,24.19,81,15,4.32,few clouds
428,Xacmaz,AZ,41.4635,48.806,62.22,73,77,4.47,broken clouds
429,Hobyo,SO,5.3505,48.5268,84.51,72,8,13.31,clear sky
430,Sawakin,SD,19.1059,37.3321,82.29,74,0,5.79,clear sky
431,De Aar,ZA,-30.6497,24.0123,59.92,73,67,6.11,moderate rain
432,Namibe,AO,-15.1961,12.1522,72.61,74,13,6.58,few clouds
433,Luau,AO,-10.7073,22.2247,65.21,84,13,3.15,few clouds
434,Kupang,ID,-10.1667,123.5833,76.84,86,6,5.73,clear sky
435,Igarka,RU,67.4667,86.5833,21.51,89,100,10.56,overcast clouds
436,Naze,JP,28.3667,129.4833,72.52,92,47,14.27,scattered clouds
437,Tucurui,BR,-3.7661,-49.6725,80.01,90,100,2.91,overcast clouds
438,Araouane,ML,18.9048,-3.5265,84.87,8,0,5.26,clear sky
439,Lagos,NG,6.5833,3.75,79.99,79,100,5.39,light rain
440,Taoudenni,ML,22.6783,-3.9836,92.17,8,0,5.37,clear sky
441,General Roca,AR,-39.0333,-67.5833,61.63,21,14,12.88,few clouds
442,Isla Mujeres,MX,21.2311,-86.731,84.25,66,6,10.4,clear sky
443,Juneau,US,58.3019,-134.4197,45.84,91,75,5.75,broken clouds
444,Okha,RU,53.5739,142.9478,28.02,89,100,18.63,overcast clouds
445,Hovd,MN,48.0056,91.6419,40.35,32,0,1.01,clear sky
446,Bubaque,GW,11.2833,-15.8333,78.12,74,86,19.01,overcast clouds
447,Faya,SA,18.3851,42.4509,64.51,41,0,2.57,clear sky
448,Rovaniemi,FI,66.5,25.7167,31.41,37,0,10.36,clear sky
449,San Quintin,MX,30.4833,-115.95,63.55,65,19,19.01,few clouds
450,Auki,SB,-8.7676,160.7034,77.07,87,100,2.39,overcast clouds
451,Yerbogachen,RU,61.2767,108.0108,28.35,88,99,4.76,overcast clouds
452,Lugazi,UG,0.3772,32.9197,64.29,99,100,5.17,moderate rain
453,Maldonado,UY,-34.6667,-54.9167,61.99,52,0,15.97,clear sky
454,Hirara,JP,24.8,125.2833,79.39,88,0,17.85,light rain
455,Jalu,LY,29.0331,21.5482,91.24,8,100,20.13,overcast clouds
456,Shingu,JP,33.7333,135.9833,63.27,95,100,7.54,overcast clouds
457,Maine-Soroa,NE,13.2114,12.0241,91.02,12,90,6.2,overcast clouds
458,Oyama,JP,36.3,139.8,60.58,54,62,4.41,broken clouds
459,Carlet,ES,39.2333,-0.5167,62.74,80,100,5.01,overcast clouds
460,Alofi,NU,-19.0595,-169.9187,76.89,94,94,9.22,overcast clouds
461,Vilyuysk,RU,63.7553,121.6247,16.45,98,86,2.73,overcast clouds
462,Floro,NO,61.5996,5.0328,43.97,70,75,8.05,broken clouds
463,Solnechnyy,RU,50.7214,136.6319,23.34,85,35,5.23,scattered clouds
464,Avera,US,33.194,-82.5271,77.56,29,4,6.98,clear sky
465,Roslyakovo,RU,69.043,33.1991,27.32,67,99,18.25,overcast clouds
466,Ulladulla,AU,-35.35,150.4667,63.5,89,2,6.35,clear sky
467,Sao Jose Da Coroa Grande,BR,-8.8978,-35.1478,80.4,78,99,11.03,overcast clouds
468,Manitouwadge,CA,49.1215,-85.8403,47.82,42,12,4.36,few clouds
469,Carballo,ES,43.213,-8.691,62.76,84,6,6.96,clear sky
470,Joshimath,IN,30.5667,79.5667,58.62,58,10,7.27,clear sky
471,Severo-Yeniseyskiy,RU,60.3725,93.0408,42.76,92,99,9.15,overcast clouds
472,Zhangye,CN,38.9342,100.4517,55.2,27,100,10.11,overcast clouds
473,Santa Cruz,BO,-17.8,-63.1667,86.05,70,75,14.97,broken clouds
474,Gazojak,TM,41.1875,61.4036,71.38,54,83,11.41,broken clouds
475,Port Shepstone,ZA,-30.7414,30.455,66.29,75,0,9.57,clear sky
476,Richards Bay,ZA,-28.783,32.0377,66.54,83,0,9.78,clear sky
477,Macherla,IN,16.4833,79.4333,85.42,54,3,12.33,clear sky
478,Kungurtug,RU,50.5994,97.5228,32.2,69,100,0.98,overcast clouds
479,Bukachacha,RU,52.9833,116.9167,30.61,74,100,5.08,overcast clouds
480,Xichang,CN,27.8964,102.2634,58.17,88,42,0.34,scattered clouds
481,Maniitsoq,GL,65.4167,-52.9,28.87,97,100,3.65,snow
482,Sri Aman,MY,1.2376,111.4621,75.25,100,90,0.0,moderate rain
483,Mangai,CD,-4.05,19.5333,73.54,84,76,0.38,broken clouds
484,Talnakh,RU,69.4865,88.3972,11.21,95,100,3.78,overcast clouds
485,Kokoda,PG,-8.8785,147.7407,72.43,92,21,3.51,few clouds
486,Fairbanks,US,64.8378,-147.7164,48.09,46,87,1.99,overcast clouds
487,Keetmanshoop,NA,-26.5833,18.1333,68.92,60,20,4.61,few clouds
488,Samarai,PG,-10.6167,150.6667,81.63,78,32,9.4,scattered clouds
489,Katherine,AU,-14.4667,132.2667,80.92,74,40,4.61,scattered clouds
490,Broken Hill,AU,-31.95,141.4333,58.71,88,100,5.75,overcast clouds
491,Sibu,MY,2.3,111.8167,77.31,88,40,3.44,scattered clouds
492,Stornoway,GB,58.2093,-6.3865,53.56,59,20,10.36,few clouds
493,Inhambane,MZ,-23.865,35.3833,69.78,83,20,4.61,few clouds
494,Cabedelo,BR,-6.9811,-34.8339,84.87,75,49,14.81,scattered clouds
495,Ocotal,NI,13.6321,-86.4752,84.69,50,95,6.04,overcast clouds
496,Kostomuksha,RU,64.571,30.5767,25.41,91,100,4.14,overcast clouds
497,Del Rio,US,29.3627,-100.8968,78.82,66,100,16.11,overcast clouds
498,Dok Kham Tai,TH,19.1624,99.9934,82.72,54,97,4.38,overcast clouds
499,Dunedin,NZ,-45.8742,170.5036,50.81,86,1,3.0,clear sky
500,Baculin,PH,7.4525,126.5842,76.77,90,100,5.95,light rain
501,Pokaran,IN,26.9167,71.9167,88.59,18,0,16.58,clear sky
502,Tyrma,RU,50.0833,132.1667,26.37,83,90,1.41,overcast clouds
503,Pierre,US,44.3683,-100.351,61.05,48,0,13.0,clear sky
504,Kampil,IN,27.6167,79.2833,90.59,12,0,5.53,clear sky
505,Sesheke,ZM,-17.4759,24.2968,66.94,63,4,5.84,clear sky
506,Matara,LK,5.9485,80.5353,81.07,80,100,5.55,overcast clouds
507,Washougal,US,45.5826,-122.3534,53.47,77,100,3.44,overcast clouds
508,Batemans Bay,AU,-35.7167,150.1833,61.11,93,9,5.73,clear sky
509,Smithers,CA,54.7804,-127.1743,44.92,57,20,9.22,few clouds
510,Wadi Maliz,TN,36.4681,8.5495,60.46,52,100,4.9,light rain
511,Ylivieska,FI,64.0833,24.55,28.31,82,3,4.74,clear sky
512,Belmonte,BR,-15.8631,-38.8828,80.33,72,6,9.17,clear sky
513,California City,US,35.1258,-117.9859,70.86,23,0,33.38,clear sky
514,Mumford,GH,5.2618,-0.759,80.62,76,100,5.97,overcast clouds
515,Nioro,GM,13.35,-15.75,98.65,15,3,8.81,clear sky
516,Santana Do Matos,BR,-5.9575,-36.6556,85.19,58,100,9.48,overcast clouds
517,Shitanjing,CN,39.2342,106.3439,54.0,28,100,4.12,overcast clouds
518,Bunog,PH,9.1403,117.7817,78.39,89,100,8.23,light rain
519,Alice Town,BS,25.7167,-79.3,77.41,67,0,5.66,clear sky
520,Dolzhanskaya,RU,46.6311,37.8039,58.64,70,0,12.73,clear sky
521,Kushmurun,KZ,52.4503,64.6311,59.76,54,98,10.85,overcast clouds
522,Rimbey,CA,52.6334,-114.2353,48.61,36,8,6.69,clear sky
523,Simao,CN,22.7886,100.9748,66.47,38,5,0.49,clear sky
524,Kalmunai,LK,7.4167,81.8167,80.82,84,77,7.94,broken clouds
525,Creteni,RO,44.6833,24.1833,55.31,82,15,4.47,few clouds
526,Polson,US,47.6936,-114.1632,50.22,56,100,3.47,overcast clouds
527,Puerto Gaitan,CO,4.3133,-72.0816,86.76,59,88,4.68,overcast clouds
528,Rawson,AR,-43.3002,-65.1023,51.37,33,47,16.04,scattered clouds
529,Thunder Bay,CA,48.4001,-89.3168,40.98,48,20,11.5,few clouds
530,Hay River,CA,60.8156,-115.7999,33.76,75,20,5.75,few clouds
531,Onega,RU,63.9061,38.1404,27.75,83,41,8.23,scattered clouds
532,Sain Alto,MX,23.5833,-103.25,79.56,14,6,6.87,clear sky
533,Gigmoto,PH,13.7796,124.39,79.27,89,92,7.38,overcast clouds
534,Qasigiannguit,GL,68.8193,-51.1922,26.85,90,100,4.38,overcast clouds
535,Gorodets,RU,56.6514,43.475,32.14,53,5,0.81,clear sky
536,Eresos,GR,39.1667,25.9333,64.0,69,2,12.62,clear sky
537,Tomatlan,MX,19.9333,-105.25,93.85,34,0,11.43,clear sky
538,Laval,CA,45.57,-73.692,51.85,27,20,17.27,few clouds
539,Itarema,BR,-2.9248,-39.9167,81.09,83,90,10.85,overcast clouds
540,Ferme-Neuve,CA,46.7001,-75.4493,43.43,34,3,15.05,clear sky
541,Krasnozerskoye,RU,53.9828,79.2374,59.5,60,100,8.93,overcast clouds
542,Lebedinyy,RU,58.5167,125.5167,19.85,95,100,2.64,light snow
543,Porto Novo,BJ,6.4965,2.6036,84.02,75,74,6.33,broken clouds
544,Suzun,RU,53.7841,82.3116,55.08,51,71,6.55,broken clouds
545,Sechura,PE,-5.5569,-80.8222,78.62,62,87,9.69,overcast clouds
546,Kokopo,PG,-4.352,152.2633,75.74,83,100,4.45,overcast clouds
547,Cilegon,ID,-6.0174,106.0538,80.74,81,100,11.01,overcast clouds
548,Benjamin Hill,MX,30.1667,-111.1,82.53,12,0,20.07,clear sky
549,Koumac,NC,-20.5667,164.2833,71.94,91,100,9.01,overcast clouds
550,Ambon,ID,-3.6954,128.1814,81.14,77,89,2.84,overcast clouds
551,Piedras Negras,MX,28.7,-100.5167,83.25,66,100,16.49,overcast clouds
552,Esperance,AU,-33.8667,121.9,53.44,75,59,12.77,broken clouds
553,Takoradi,GH,4.8845,-1.7554,78.58,82,100,2.13,overcast clouds
554,Cam Ranh,VN,11.9214,109.1591,80.56,83,40,2.3,scattered clouds
555,Lotoshino,RU,56.2267,35.6414,32.02,85,51,3.71,broken clouds
556,Gelemso,ET,8.8167,40.5167,63.84,72,69,9.31,broken clouds
557,Penzance,GB,50.1186,-5.5371,50.68,82,29,6.42,scattered clouds
558,Nagato,JP,34.3833,131.2,63.19,91,100,6.4,moderate rain
559,Recke,DE,52.3833,7.7167,55.38,75,53,8.21,broken clouds
560,Owando,CG,-0.4819,15.8999,73.08,94,100,1.72,light rain
561,Milledgeville,US,33.0801,-83.2321,81.43,30,0,0.0,clear sky
562,Tres Lagoas,BR,-20.7511,-51.6783,91.69,26,59,7.85,broken clouds
563,Canguaretama,BR,-6.38,-35.1289,82.76,73,52,13.71,broken clouds
564,Labuhan,ID,-6.8844,112.2051,79.75,84,100,2.59,light rain
565,Jining,CN,35.405,116.5814,44.82,95,0,6.06,clear sky
566,Alta Floresta,BR,-9.8756,-56.0861,94.82,46,40,5.75,scattered clouds
567,Storforshei,NO,66.4043,14.5233,31.78,64,40,13.8,scattered clouds
568,Lexington,US,37.9887,-84.4777,68.34,43,0,5.75,clear sky
569,Atherton,GB,53.5237,-2.4935,50.9,62,100,1.01,overcast clouds
570,Balikpapan,ID,-1.2675,116.8289,77.99,94,20,4.61,light rain
571,Teseney,ER,15.11,36.6575,90.86,15,5,9.84,clear sky
572,Maarianhamina,AX,60.0973,19.9348,39.06,60,0,3.44,clear sky
573,Kommunisticheskiy,RU,61.6789,64.4819,34.68,99,100,4.88,light snow
574,Lakes Entrance,AU,-37.8811,147.981,56.16,86,0,5.14,clear sky
575,Huangnihe,CN,43.5583,128.0239,37.17,46,79,0.76,broken clouds
576,Havelock,US,34.8791,-76.9013,67.98,37,0,13.8,clear sky
577,Odweyne,SO,9.4092,45.064,81.66,42,63,13.42,broken clouds
578,Stare Mesto,CZ,50.087,14.4202,58.32,53,0,4.61,clear sky
579,Andenes,NO,69.3143,16.1194,30.18,64,40,20.71,light snow
580,Dmitriyevka,RU,54.75,55.3333,47.75,77,7,11.01,clear sky
581,Nizwa,OM,22.9333,57.5333,87.22,33,76,11.3,broken clouds
582,Havre-Saint-Pierre,CA,50.2334,-63.5986,39.56,87,100,14.97,overcast clouds
583,North Fort Myers,US,26.6673,-81.8801,91.06,45,40,8.05,scattered clouds
584,Puerto Madryn,AR,-42.7692,-65.0385,51.67,28,43,15.48,scattered clouds
585,Mount Barker,AU,-35.0667,138.8667,64.29,79,100,7.29,overcast clouds
586,Domoni,KM,-12.2569,44.5319,80.13,81,97,12.75,overcast clouds
587,Korla,CN,41.7597,86.1469,51.69,57,66,11.5,broken clouds
588,Roebourne,AU,-20.7833,117.1333,72.77,81,100,9.04,light rain
589,Mehamn,NO,71.0357,27.8492,22.91,72,100,25.23,light snow
590,Beira,MZ,-19.8436,34.8389,75.29,69,75,5.99,broken clouds
591,Zheleznodorozhnyy,RU,55.7503,38.0042,44.78,80,100,5.66,overcast clouds
592,Springbok,ZA,-29.6643,17.8865,57.04,39,0,5.08,clear sky
593,Sapele,NG,5.8941,5.6767,79.34,84,96,4.38,overcast clouds
594,Conceicao Do Araguaia,BR,-8.2578,-49.2647,86.04,61,96,4.99,overcast clouds
595,Alice Springs,AU,-23.7,133.8833,69.22,32,70,0.0,broken clouds
596,Chulumani,BO,-16.4096,-67.5263,78.4,55,100,4.94,overcast clouds
597,Zlobin,HR,45.2924,14.6541,56.5,39,0,12.66,clear sky
598,Puerto Colombia,CO,10.9878,-74.9547,87.89,75,100,15.5,overcast clouds
599,Sao Felix Do Xingu,BR,-6.6447,-51.995,85.21,63,100,4.59,overcast clouds
600,Tura,IN,25.5198,90.2201,74.08,82,0,2.86,clear sky
601,Mana,GF,5.6592,-53.7767,82.4,76,46,11.03,scattered clouds
602,Gharo,PK,24.7424,67.5856,84.42,70,0,14.58,clear sky
603,Kultuk,RU,51.7208,103.6956,32.31,68,85,5.28,overcast clouds
604,Penicuik,GB,55.8317,-3.2242,51.71,70,0,5.75,clear sky
605,Yokadouma,CM,3.5167,15.05,70.77,98,99,0.87,light rain
606,Kirando,TZ,-7.4167,30.6,72.21,83,45,8.34,moderate rain
607,Bluefields,NI,12.0137,-83.7635,86.07,70,40,9.22,scattered clouds
608,Pudozh,RU,61.8099,36.5345,24.84,92,23,4.21,few clouds
609,Sohag,EG,26.557,31.6948,88.09,5,29,6.8,scattered clouds
610,Panama City,PA,8.9936,-79.5197,84.15,83,75,6.91,broken clouds
611,Nyurba,RU,63.2842,118.3319,19.36,98,100,3.24,overcast clouds
612,Tokmak,UA,47.2514,35.7058,60.87,47,100,12.66,overcast clouds
613,Qiongshan,CN,20.0058,110.3542,78.78,94,40,4.47,scattered clouds
614,Sterling,US,39.0062,-77.4286,59.25,33,0,21.0,clear sky
615,Gwadar,PK,25.1216,62.3254,85.77,63,0,18.16,clear sky
616,Safford,US,32.834,-109.7076,83.12,10,0,6.91,clear sky
617,Turukhansk,RU,65.8167,87.9833,33.44,99,100,6.31,overcast clouds
618,Labrea,BR,-7.2586,-64.7981,82.56,75,100,2.19,overcast clouds
619,Koungheul,SN,13.9833,-14.8,100.17,13,0,2.73,clear sky
620,Babushkin,RU,51.7122,105.8647,27.27,78,5,6.04,clear sky
621,Moron,AR,-34.6534,-58.6198,62.35,29,0,8.81,clear sky
622,Budesti,RO,44.2347,26.4658,59.47,94,100,6.15,overcast clouds
623,Chateaubelair,VC,13.2833,-61.25,77.52,89,75,6.91,broken clouds
624,Waddan,LY,29.1614,16.139,78.04,25,0,14.52,clear sky
625,Aklavik,CA,68.2191,-135.0107,10.4,79,100,0.0,overcast clouds
626,Sobolevo,RU,54.4299,31.8996,36.63,60,6,4.61,clear sky
627,Nalut,LY,30.3333,10.85,77.61,21,40,19.37,scattered clouds
628,Inirida,CO,3.8653,-67.9239,84.56,76,94,0.65,overcast clouds
629,Severobaykalsk,RU,55.65,109.3167,20.19,80,5,6.44,clear sky
630,Fonte Boa,BR,-2.4959,-66.2662,82.35,90,99,2.71,overcast clouds
631,Caldas Novas,BR,-17.7417,-48.625,88.18,28,0,1.3,clear sky
632,Yazykovo,RU,55.2199,56.1353,39.83,77,6,10.6,clear sky
633,Trairi,BR,-3.2778,-39.2689,79.68,88,54,9.53,broken clouds
634,Khandyga,RU,62.6667,135.6,6.06,97,100,1.54,overcast clouds
635,Cayenne,GF,4.9333,-52.3333,85.08,4,75,14.97,broken clouds
636,Burnie,AU,-41.0667,145.9167,62.92,93,64,2.06,broken clouds
637,Tabou,CI,4.423,-7.3528,81.34,77,88,6.69,overcast clouds
638,Shumskiy,RU,54.8318,99.1328,41.7,94,100,3.62,light rain
639,Marawi,PH,7.9986,124.2928,69.89,91,100,2.24,overcast clouds
640,Bandarbeyla,SO,9.4942,50.8122,83.55,77,22,8.93,few clouds
641,Puerto Ayacucho,VE,5.6639,-67.6236,88.65,62,88,1.32,overcast clouds
642,Isangel,VU,-19.55,169.2667,78.01,73,100,20.6,overcast clouds
643,Kapuskasing,CA,49.4169,-82.4331,48.29,23,0,8.05,clear sky
644,Bontang,ID,0.1333,117.5,78.33,87,33,4.68,scattered clouds
645,Tenenkou,ML,14.4572,-4.9169,90.95,13,96,5.68,overcast clouds
646,Tarakan,ID,3.3,117.6333,78.3,100,40,2.3,scattered clouds
647,Taltal,CL,-25.4,-70.4833,66.65,74,28,5.84,scattered clouds
648,Murgab,TM,37.4966,61.9714,75.07,35,6,9.22,clear sky
649,Kursenai,LT,55.985,22.9189,44.85,68,25,6.53,scattered clouds
650,Miramar,US,25.9873,-80.2323,89.01,56,75,17.27,broken clouds
651,Jiangyou,CN,31.7667,104.7167,65.8,68,100,3.71,overcast clouds
652,Commerce,US,34.0006,-118.1598,68.72,63,100,10.36,overcast clouds
653,Badin,PK,24.656,68.8384,86.02,54,0,12.37,clear sky
654,Saint-Paul-Les-Dax,FR,43.7272,-1.0516,62.15,91,100,5.75,overcast clouds
655,Mukhen,RU,48.1,136.1,32.47,81,0,5.06,clear sky
656,Tilichiki,RU,60.4667,166.1,31.46,81,100,12.73,overcast clouds
657,Pochutla,MX,15.7432,-96.4661,91.81,48,19,10.78,few clouds
658,Beitbridge,ZW,-22.2167,30.0,69.73,51,66,9.53,broken clouds
659,Westport,US,41.1415,-73.3579,57.33,22,0,23.02,clear sky
660,Gold Coast,AU,-28.0,153.4333,68.07,96,75,5.75,broken clouds
661,Wardha,IN,20.75,78.6167,95.47,14,100,4.47,overcast clouds
662,Hudson Bay,CA,52.85,-102.3842,50.16,63,75,6.93,broken clouds
663,Winton,US,37.3894,-120.6133,64.74,41,0,11.5,clear sky
664,Orange Cove,US,36.6244,-119.3137,68.61,28,0,10.54,clear sky
665,High Rock,BS,26.6208,-78.2833,80.62,62,9,5.08,clear sky
666,Hegang,CN,47.4,130.3667,35.91,49,0,2.95,clear sky
667,La Esperanza,GT,14.8667,-91.5667,68.07,76,75,4.61,broken clouds
668,Maningrida,AU,-12.0667,134.2667,78.75,83,78,4.23,broken clouds
669,Ginda,IN,30.6945,78.4932,63.68,31,80,7.7,broken clouds
670,Passos,BR,-20.7189,-46.6097,82.49,43,1,1.61,clear sky
671,Canavieiras,BR,-15.675,-38.9472,84.16,72,6,7.76,clear sky
672,Conchas,BR,-23.0153,-48.0106,85.3,44,4,5.46,clear sky
673,Bilma,NE,18.6853,12.9164,90.57,9,28,9.26,scattered clouds
674,Abu Kamal,SY,34.4506,40.9171,78.4,36,100,13.47,light rain
675,Margate,GB,51.3813,1.3862,50.31,73,100,5.99,overcast clouds
676,Svetlaya,RU,46.5389,138.3297,35.65,67,0,8.75,clear sky
677,Volga,RU,57.9516,38.3879,32.54,71,100,3.91,overcast clouds
678,Kiunga,PG,-6.1219,141.2906,72.21,100,95,1.61,overcast clouds
679,Los Llanos De Aridane,ES,28.6585,-17.9182,64.15,87,75,10.36,broken clouds
680,Kambove,CD,-10.8764,26.5969,59.54,96,20,5.99,few clouds
681,Cockburn Town,TC,21.4612,-71.1419,78.76,50,40,9.22,scattered clouds
682,Agirish,RU,61.9247,63.0231,31.14,97,100,9.17,light snow
683,Tselinnoye,RU,53.0833,85.6667,50.7,53,92,8.16,overcast clouds
684,Nador,MA,35.174,-2.9287,62.85,77,20,4.61,few clouds
685,Sarkand,KZ,45.41,79.9186,49.53,33,0,5.93,clear sky
